[
{
"type": "fuel",
"name": "Esso",
"address": "Frankfurter Straße 65",
"lat": 49.8848387,
"lon": 8.6520691 },
{
"type": "amenity",
"name": "HoffART Theater",
"address": "Bennelbächerweg",
"lat": 49.8784609,
"lon": 8.6593199,
"icon": "hoffart.jpg" },
{
"type": "fuel",
"name": "Total",
"address": "Siemensstraße 2",
"lat": 49.8959045,
"lon": 8.6809781 },
{
"type": "pub",
"name": "Cluster",
"address": "Wilhelm-Leuschner-Straße 48",
"lat": 49.8801245,
"lon": 8.6453214,
"capacity": 130 },
{
"type": "pub",
"name": "Pillhuhn",
"address": "Riegerplatz 7",
"lat": 49.8809091,
"lon": 8.6612666,
"capacity": 65 },
{
"type": "fuel",
"name": "Aral Tankstelle",
"address": "Rüdesheimer Straße 114",
"lat": 49.8540121,
"lon": 8.6419863 },
{
"type": "fuel",
"name": "Total",
"address": "Heidelberger Straße 55-59",
"lat": 49.8614199,
"lon": 8.6468131 },
{
"type": "fuel",
"name": "Firma Karaahmetaglu",
"address": "Pallaswiesenviertel Pallaswiesenstraße",
"lat": 49.8847555,
"lon": 8.6311635 },
{
"type": "fuel",
"name": "Shell",
"address": "Pallaswiesenstraße 85",
"lat": 49.8825735,
"lon": 8.6429677 },
{
"type": "fuel",
"name": "Jet",
"address": "Johannesviertel Kasinostraße",
"lat": 49.8796515,
"lon": 8.6443997 },
{
"type": "fuel",
"name": "Shell",
"address": "Verlegerviertel Groß-Gerauer Weg",
"lat": 49.8610075,
"lon": 8.6438008 },
{
"type": "fuel",
"name": "Bio World",
"address": "Alt-Bessungen Heidelberger Straße",
"lat": 49.860629,
"lon": 8.6467905 },
{
"type": "amenity",
"name": "Centralstation",
"address": "Darmstadt-Mitte Carree",
"lat": 49.87176535,
"lon": 8.65256409386837,
"icon": "centralstation.jpg" },
{
"type": "fuel",
"name": "Shell",
"address": "Auf der Hardt Am Nordbahnhof",
"lat": 49.8907637,
"lon": 8.65370579283444 },
{
"type": "amenity",
"name": "Waldspirale",
"address": "Waldspirale 8",
"lat": 49.885555555556,
"lon": 8.6558333333333,
"icon": "waldspirale.jpg" },
{
"type": "pub",
"name": "Zum Eckchen",
"address": "Johannesviertel Kasinostraße",
"lat": 49.8749139,
"lon": 8.6435668,
"capacity": 40 },
{
"type": "amenity",
"name": "Künstlerkolonie",
"address": "Mathildenhöhe",
"lat": 49.879707,
"lon": 8.65334,
"icon": "mathildenhoehe.jpg" },
{
"type": "amenity",
"name": "West Side Theatre",
"address": "Landwehrstraße 58",
"lat": 49.8782889,
"lon": 8.63950418824466,
"icon": "westsidetheatre.jpeg" },
{
"type": "amenity",
"name": "Jagdhofkeller",
"address": "Alt-Bessungen Bessunger Straße",
"lat": 49.8581624,
"lon": 8.6486246,
"icon": "jagdhofkeller.jpg" },
{
"type": "amenity",
"name": "halb Neun Theater",
"address": "Sandstraße 32",
"lat": 49.8674069,
"lon": 8.6473876,
"icon": "halbneuntheater.jpg" },
{
"type": "amenity",
"name": "Kikeriki Theater",
"address": "Heidelberger Straße 131",
"lat": 49.8552092,
"lon": 8.6464438,
"icon": "kikeriki.gif" },
{
"type": "amenity",
"name": "Staatstheater",
"address": "Georg-Büchner-Platz 1,",
"lat": 49.868501,
"lon": 8.649341,
"icon": "staatstheater.gif" },
{
"type": "pub",
"name": "Beat Corner",
"address": "Schulstraße 18",
"lat": 49.8707072,
"lon": 8.6565291,
"capacity": 70 },
{
"type": "pub",
"name": "La Bodega",
"address": "Kahlertstraße 34",
"lat": 49.8798651,
"lon": 8.6454158,
"capacity": 40 },
{
"type": "pub",
"name": "Grauer Bock",
"address": "Kasinostraße 71",
"lat": 49.8790803,
"lon": 8.6441621,
"capacity": 65 },
{
"type": "pub",
"name": "Parliament of Rock",
"address": "Mauerstraße 20",
"lat": 49.87694,
"lon": 8.6594569,
"capacity": 60 },
{
"type": "pub",
"name": "Bangertseck",
"address": "Barkhausstraße 2",
"lat": 49.8824086,
"lon": 8.6594886,
"capacity": 45 },
{
"type": "pub",
"name": "Cafe Tornado",
"address": "Mollerstadt Saalbaustraße",
"lat": 49.8715443,
"lon": 8.6470329,
"capacity": 55 },
{
"type": "pub",
"name": "Unikum",
"address": "Mollerstadt Saalbaustraße",
"lat": 49.8714409,
"lon": 8.647085,
"capacity": 90 }
]